[
  {
    "geo": {
      "lon": 37.571969,
      "lat": 55.830088
    },
    "format": "Supermarket",
    "address": "г. Москва, Дмитровское ш., д. 37",
    "workTime": {
      "from": "10:00",
      "to": "22:00",
      "noctidial": false
    },
    "properties": [
      "111515",
      "111634",
      "111392",
      "111092",
      "111390",
      "111649"
    ],
    "name": "Дмитровское ш., 37",
    "id": "108",
  },
  {
    "geo": {
      "lon": 37.583234,
      "lat": 55.749157
    },
    "format": "Supermarket",
    "address": "г. Москва, Смоленская пл., д. 6, стр. 1",
    "workTime": {
      "from": "00:00",
      "to": "23:55",
      "noctidial": true
    },
    "properties": [
      "111620",
      "111392",
      "111092",
      "111390",
      "111649"
    ],
    "name": "Смоленская пл., 6",
    "id": "114",
  },
  {
    "geo": {
      "lon": 37.48067401,
      "lat": 55.78076224
    },
    "format": "Supermarket",
    "address": "г. Москва, ул. Народного Ополчения, д. 28",
    "workTime": {
      "from": "10:00",
      "to": "22:00",
      "noctidial": false
    },
    "properties": [
      "111515",
      "111649"
    ],
    "name": "ул. Народного Ополчения, 28",
    "id": "117",
  },
  {
    "geo": {
      "lon": 37.6718779037855,
      "lat": 55.6450173414226
    },
    "format": "Supermarket",
    "address": "г. Москва, Каширское ш., д. 58, корп. 1",
    "workTime": {
      "from": "10:00",
      "to": "22:00",
      "noctidial": false
    },
    "properties": [
      "111036",
      "111863",
      "111649"
    ],
    "name": "Каширское ш., 58",
    "id": "121",
  },
  {
    "geo": {
      "lon": 37.5853140394585,
      "lat": 55.8812500137218
    },
    "format": "Supermarket",
    "address": "г. Москва, Алтуфьевское ш., д. 79",
    "workTime": {
      "from": "10:00",
      "to": "22:00",
      "noctidial": false
    },
    "properties": [
      "111036",
      "111863",
      "111649"
    ],
    "name": "Алтуфьевское ш., 79",
    "id": "123",
  },
  {
    "geo": {
      "lon": 37.74403975,
      "lat": 55.64491502
    },
    "format": "Supermarket",
    "address": "г. Москва, ул. Люблинская, д. 128",
    "workTime": {
      "from": "10:00",
      "to": "22:00",
      "noctidial": false
    },
    "properties": [
      "111036",
      "111863",
      "111649"
    ],
    "name": "ул. Люблинская, 128",
    "id": "125",
  },
  {
    "geo": {
      "lon": 37.8326304359414,
      "lat": 55.8124598043608
    },
    "format": "Gipermarket",
    "address": "г. Москва, ТЦ \"Щелково\", ул. Щелковское шоссе, д. 100",
    "workTime": {
      "from": "10:00",
      "to": "22:00",
      "noctidial": false
    },
    "properties": [
      "111036",
      "111863",
      "111649"
    ],
    "name": "ТЦ «Щелково»",
    "id": "126",
  },
  {
    "geo": {
      "lon": 37.7977109828075,
      "lat": 55.7929468099148
    },
    "format": "Supermarket",
    "address": "г. Москва, ул. Первомайская, д. 66",
    "workTime": {
      "from": "10:00",
      "to": "22:00",
      "noctidial": false
    },
    "properties": [
      "111036",
      "111649",
    ],
    "name": "ул. Первомайская, 66",
    "id": "128",
  },
  {
    "geo": {
      "lon": 37.3951975691133,
      "lat": 55.8590898105715
    },
    "format": "Supermarket",
    "address": "Красногорский р-н, дер. Путилково, ТЦ \"Вэйпарк\", МКАД 71-й км",
    "workTime": {
      "from": "10:00",
      "to": "22:00",
      "noctidial": false
    },
    "properties": [
      "111036",
      "111863",
      "111649"
    ],
    "name": "ТЦ «Вэйпарк»",
    "id": "135",
  },
  {
    "geo": {
      "lon": 37.759295,
      "lat": 55.705694
    },
    "format": "Supermarket",
    "address": "г. Москва, Волгоградский пр-т, д. 70",
    "workTime": {
      "from": "10:00",
      "to": "22:00",
      "noctidial": false
    },
    "properties": [
      "111036",
      "111863",
      "111649"
    ],
    "name": "Волгоградский пр-т, 70",
    "id": "137",
  },
  {
    "geo": {
      "lon": 37.59553617,
      "lat": 55.70922432
    },
    "format": "Diskont",
    "address": "г. Москва, ул. Орджоникидзе, д. 11",
    "workTime": {
      "from": "10:00",
      "to": "22:00",
      "noctidial": false
    },
    "properties": [
      "111036",
      "111863",
      "111649"
    ],
    "name": "ул. Орджоникидзе, 11",
    "id": "138",
  },
  {
    "geo": {
      "lon": 37.72431552,
      "lat": 55.61080414
    },
    "format": "Supermarket",
    "address": "г. Москва, ТЦ \"Мебельград\", ул.Генерала Белова, д. 35",
    "workTime": {
      "from": "10:00",
      "to": "22:00",
      "noctidial": false
    },
    "properties": [
      "111036",
      "111863",
      "111649"
    ],
    "name": "ТД «Мебельград»",
    "id": "139",
  },
  {
    "geo": {
      "lon": 37.471895914674,
      "lat": 55.727026850861
    },
    "format": "Supermarket",
    "address": "г. Москва, Славянский б-р., д. 5, корп. 1",
    "workTime": {
      "from": "10:00",
      "to": "22:00",
      "noctidial": false
    },
    "properties": [
      "111036",
      "111863",
      "111649"
    ],
    "name": "Славянский б-р, 5",
    "id": "143",
  },
  {
    "geo": {
      "lon": 38.095397,
      "lat": 55.607016
    },
    "format": "Supermarket",
    "address": "г. Жуковский, ул. Гагарина, д. 51",
    "workTime": {
      "from": "10:00",
      "to": "22:00",
      "noctidial": false
    },
    "properties": [
      "111735",
    ],
    "name": "ул. Гагарина, 51",
    "id": "147",
  },
  {
    "geo": {
      "lon": 37.9267117440841,
      "lat": 55.7943113986637
    },
    "format": "Supermarket",
    "address": "г. Балашиха, ул. Победы д. 2",
    "workTime": {
      "from": "10:00",
      "to": "22:00",
      "noctidial": false
    },
    "properties": [
      "111036",
      "111863",
      "111649"
    ],
    "name": "ТЦ «Светофор»",
    "id": "151",
  },
  {
    "geo": {
      "lon": 37.6007966,
      "lat": 55.69044985
    },
    "format": "Supermarket",
    "address": "г. Москва, ТЦ \"РИО\", ул Б.Черемушкинская, д. 1",
    "workTime": {
      "from": "10:00",
      "to": "22:00",
      "noctidial": false
    },
    "properties": [
      "111036",
      "111863",
      "111649"
    ],
    "name": "ТРЦ «РИО» Академическая",
    "id": "153",
  },
  {
    "geo": {
      "lon": 37.612599,
      "lat": 55.614861
    },
    "format": "Pro",
    "address": "г. Москва, Варшавское ш., д. 129",
    "workTime": {
      "from": "00:00",
      "to": "23:59",
      "noctidial": true
    },
    "properties": [
      "111634",
      "111392",
      "111092",
      "111390",
      "111649"
    ],
    "name": "Варшавское ш., 129",
    "id": "159",
  },
  {
    "geo": {
      "lon": 37.3618959773449,
      "lat": 55.8467106611509
    },
    "format": "Supermarket",
    "address": "г. Москва, ТЦ \"Ковчег\", ул. Митинская, д. 36 к. 1",
    "workTime": {
      "from": "10:00",
      "to": "22:00",
      "noctidial": false
    },
    "properties": [
      "111036",
      "111863",
      "111649"
    ],
    "name": "ТЦ «Ковчег»",
    "id": "160",
  },
  {
    "geo": {
      "lon": 38.7570633965936,
      "lat": 55.101222252038
    },
    "format": "Supermarket",
    "address": "г. Коломна, ул. Зайцева, д. 23",
    "workTime": {
      "from": "10:00",
      "to": "22:00",
      "noctidial": false
    },
    "properties": [
      "111036",
      "111863",
      "111649"
    ],
    "name": "ул. Зайцева, 23",
    "id": "166",
  },
  {
    "geo": {
      "lon": 37.593407766041,
      "lat": 55.7939484367565
    },
    "format": "Diskont",
    "address": "г. Москва, ТЦ \"Савеловский\", ул. Сущевский Вал, д. 5, стр. 20",
    "workTime": {
      "from": "10:00",
      "to": "20:00",
      "noctidial": false
    },
    "properties": [
      "111036",
      "111863",
      "111649"
    ],
    "name": "ТЦ «Савеловский»",
    "id": "171",
  },
  {
    "geo": {
      "lon": 37.4115738350058,
      "lat": 55.6471122976852
    },
    "format": "Supermarket",
    "address": "г. Москва, ТЦ \"Столица\", Солнцевский пр-т, д. 21",
    "workTime": {
      "from": "10:00",
      "to": "22:00",
      "noctidial": false
    },
    "properties": [
      "111036",
      "111863",
      "111649"
    ],
    "name": "ТЦ «Столица»",
    "id": "175",
  },
  {
    "geo": {
      "lon": 38.98742,
      "lat": 55.808032
    },
    "format": "Supermarket",
    "address": "г. Орехово-Зуево, ТЦ \"Орех\", ул. Ленина, д. 78",
    "workTime": {
      "from": "10:00",
      "to": "22:00",
      "noctidial": false
    },
    "properties": [
      "111735",
    ],
    "name": "ТЦ «Орех»",
    "id": "178",
  },
  {
    "geo": {
      "lon": 37.4908093972054,
      "lat": 55.6036656735264
    },
    "format": "Supermarket",
    "address": "Ленинский р-н, ТЦ \"Мега\", Калужское ш., д. 1, МКАД 41-й км",
    "workTime": {
      "from": "10:00",
      "to": "23:59",
      "noctidial": false
    },
    "properties": [
      "111649",
      "111036",
      "111620",
      "111392",
      "111092",
      "111390"
    ],
    "name": "ТЦ «МЕГА» Теплый Стан",
    "id": "188",
  },
  {
    "geo": {
      "lon": 37.8448058492489,
      "lat": 55.6588826266216
    },
    "format": "Supermarket",
    "address": "г. Котельники, ТЦ \"Мега\", Покровский пр-д, д. 4, м-н \"Белая Дача\", МКАД 14-й км.",
    "workTime": {
      "from": "10:00",
      "to": "23:00",
      "noctidial": false
    },
    "properties": [
      "111036",
      "111863",
      "111392",
      "111092",
      "111390",
      "111649"
    ],
    "name": "ТЦ «МЕГА» Белая Дача",
    "id": "189",
  },
  {
    "geo": {
      "lon": 37.4333508368118,
      "lat": 55.8888703719381
    },
    "format": "Supermarket",
    "address": "г. Химки, ТЦ \"Лига\", Ленинградское ш., вл. 5",
    "workTime": {
      "from": "10:00",
      "to": "22:00",
      "noctidial": false
    },
    "properties": [
      "111036",
      "111863",
      "111649"
    ],
    "name": "ТЦ «Лига»",
    "id": "190",
  },
  {
    "geo": {
      "lon": 37.7302760369086,
      "lat": 55.7301853921789
    },
    "format": "Supermarket",
    "address": "г. Москва, ТЦ \"Город\", Рязанский пр-т, вл. 2",
    "workTime": {
      "from": "10:00",
      "to": "22:00",
      "noctidial": false
    },
    "properties": [
      "111036",
      "111863",
      "111649"
    ],
    "name": "ТК «Город» Рязанский проспект",
    "id": "191",
  },
  {
    "geo": {
      "lon": 37.46609767,
      "lat": 55.67769399
    },
    "format": "Supermarket",
    "address": "г. Москва, ТЦ \"Фестиваль\", Мичуринский пр-т, Олимпийская деревня, д. 3, корп. 1",
    "workTime": {
      "from": "10:00",
      "to": "22:00",
      "noctidial": false
    },
    "properties": [
      "111036",
      "111863",
      "111392",
      "111092",
      "111390",
      "111649"
    ],
    "name": "ТЦ «Фестиваль»",
    "id": "192",
  },
  {
    "geo": {
      "lon": 37.6291652384181,
      "lat": 55.8987266068329
    },
    "format": "Supermarket",
    "address": "г. Москва, ТК \"Час Пик\", МКАД 87-й км",
    "workTime": {
      "from": "10:00",
      "to": "22:00",
      "noctidial": false
    },
    "properties": [
      "111863",
      "111649",
    ],
    "name": "ТК «Час Пик»",
    "id": "193",
  },
  {
    "geo": {
      "lon": 37.400515873398,
      "lat": 55.9102196837663
    },
    "format": "Supermarket",
    "address": "г. Химки, ТЦ \"МЕГА2\", м-н №8, ул. Ленинградская, д. 1",
    "workTime": {
      "from": "10:00",
      "to": "23:00",
      "noctidial": false
    },
    "properties": [
      "111036",
      "111863",
      "111620",
      "111392",
      "111092",
      "111390",
      "111649"
    ],
    "name": "ТЦ «МЕГА» Химки",
    "id": "194",
  },
  {
    "geo": {
      "lon": 37.6009018129317,
      "lat": 55.7798363127668
    },
    "format": "Supermarket",
    "address": "г. Москва, ТЦ \"Дружба\", ул. Новослободская, д. 4",
    "workTime": {
      "from": "10:00",
      "to": "22:00",
      "noctidial": false
    },
    "properties": [
      "111036",
      "111863",
      "111649"
    ],
    "name": "ТЦ «Дружба»",
    "id": "195",
  },
  {
    "geo": {
      "lon": 37.8965298929751,
      "lat": 55.6916805199426
    },
    "format": "Supermarket",
    "address": "г. Люберцы, ТЦ \"Светофор\", ул. Побратимов, д. 7",
    "workTime": {
      "from": "10:00",
      "to": "22:00",
      "noctidial": false
    },
    "properties": [
      "111036",
      "111863",
      "111649"
    ],
    "name": "ТЦ «Светофор»",
    "id": "200",
  },
  {
    "geo": {
      "lon": 37.4970969087491,
      "lat": 55.822803751742
    },
    "format": "Supermarket",
    "address": "г. Москва, ТРК \"Метрополис\", Ленинградское ш., д.16А",
    "workTime": {
      "from": "10:00",
      "to": "23:00",
      "noctidial": false
    },
    "properties": [
      "111036",
      "111863",
      "111392",
      "111092",
      "111390",
      "111649"
    ],
    "name": "ТРК «Метрополис»",
    "id": "201",
  },
  {
    "geo": {
      "lon": 85.1743572404875,
      "lat": 52.5120315708623
    },
    "format": "Supermarket",
    "address": "г. Бийск, ТРЦ \"Ривьера\", ул. Советская, д. 205/2",
    "workTime": {
      "from": "10:00",
      "to": "22:00",
      "noctidial": false
    },
    "properties": [
      "111036",
    ],
    "name": "ТРЦ «Ривьера»",
    "id": "207",
  },
  {
    "geo": {
      "lon": 30.3605046446448,
      "lat": 59.9273943402746
    },
    "format": "Supermarket",
    "address": "г. Санкт-Петербург, ТЦ \"Галерея\", Лиговский пр-т, д. 30а",
    "workTime": {
      "from": "10:00",
      "to": "23:00",
      "noctidial": false
    },
    "properties": [
      "111036",
      "111649"
    ],
    "name": "ТЦ «Галерея»",
    "id": "210",
  },
  {
    "geo": {
      "lon": 59.9487288891454,
      "lat": 57.9118001896644
    },
    "format": "Supermarket",
    "address": "г. Нижний Тагил, ул. Газетная, д. 9",
    "workTime": {
      "from": "10:00",
      "to": "22:00",
      "noctidial": false
    },
    "properties": [
    ],
    "name": "ул. Газетная, 9",
    "id": "242",
  },
  {
    "geo": {
      "lon": 43.4630017998185,
      "lat": 56.2369539000044
    },
    "format": "Supermarket",
    "address": "г. Дзержинск, ТЦ \"Дзержинец\", пр-т Ленина д. 66",
    "workTime": {
      "from": "09:00",
      "to": "21:00",
      "noctidial": false
    },
    "properties": [
      "111036",
    ],
    "name": "ТЦ «Дзержинец»",
    "id": "244",
  },
  {
    "geo": {
      "lon": 44.7993559160011,
      "lat": 48.771613789565
    },
    "format": "Supermarket",
    "address": "г. Волжский, ТРК \"Волга Молл\", ул. Александрова, д. 18а",
    "workTime": {
      "from": "10:00",
      "to": "22:00",
      "noctidial": false
    },
    "properties": [
      "111863",
    ],
    "name": "ТРК «Волга Молл»",
    "id": "245",
  },
  {
    "geo": {
      "lon": 39.045428,
      "lat": 45.031645
    },
    "format": "Gipermarket",
    "address": "г. Краснодар, ТЦ \"Галактика\", ул. Уральская, д.98/11",
    "workTime": {
      "from": "10:00",
      "to": "22:00",
      "noctidial": false
    },
    "properties": [
    ],
    "name": "ТРК «Галактика»",
    "id": "254",
  },
  {
    "geo": {
      "lon": 44.0753656992769,
      "lat": 56.3074358271198
    },
    "format": "Supermarket",
    "address": "г. Нижний Новгород, ТЦ \"Фантастика\", ул. Родионова, д. 187В",
    "workTime": {
      "from": "10:00",
      "to": "22:00",
      "noctidial": false
    },
    "properties": [
      "111036",
      "111649"
    ],
    "name": "ТЦ «Фантастика»",
    "id": "264",
  }
]